<?xml version="1.0" encoding="UTF-8"?>
<HealthServices><property><name>Γενικό Νοσοκομείο Χανίων</name><description/><latitude>35.4787</latitude><longitude>24.0174</longitude></property><property><name>Θεραπευτήριο Ψυχικών Παθήσεων Χανίων</name><description/><latitude>35.4787</latitude><longitude>24.0174</longitude></property><property><name>Περιφερειακό Ιατρείο Αρωνίου</name><description/><latitude>35.51684</latitude><longitude>24.11282</longitude></property><property><name>Περιφερειακό Ιατρείο Κοντοπούλων</name><description/><latitude>35.4500</latitude><longitude>24.0524</longitude></property><property><name>Περιφερειακό Ιατρείο Αρμένων</name><description/><latitude>35.43004</latitude><longitude>24.15808</longitude></property><property><name>Κέντρο Υγείας Κισσάμου</name><description/><latitude>35.4948</latitude><longitude>23.6549</longitude></property><property><name>Περιφερειακό Ιατρείο Νέας Κυδωνίας</name><description/><latitude>35.5002</latitude><longitude>23.9516</longitude></property><property><name>Περιφερειακό Ιατρείο Γερανίου</name><description/><latitude>35.5179</latitude><longitude>23.8748</longitude></property><property><name>Περιφερειακό Ιατρείο Μάλεμε</name><description/><latitude>35.5232</latitude><longitude>23.8484</longitude></property><property><name>Περιφερειακό Ιατρείο Ταυρωνίτη</name><description/><latitude>35.5243</latitude><longitude>23.8166</longitude></property><property><name>Περιφερειακό Ιατρείο Κολυμβαρίου</name><description/><latitude>35.5439</latitude><longitude>23.7800</longitude></property><property><name>Περιφερειακό Ιατρείο Σπηλιάς</name><description/><latitude>35.5153</latitude><longitude>23.7802</longitude></property><property><name>Περιφερειακό Ιατρείο Καλυδωνίας</name><description/><latitude>35.5236</latitude><longitude>23.7510</longitude></property><property><name>Περιφερειακό Ιατρείο Καλουδιανών</name><description/><latitude>35.4870</latitude><longitude>23.6894</longitude></property><property><name>Περιφερειακό Ιατρείο Πλατάνου</name><description/><latitude>35.4696</latitude><longitude>23.6005</longitude></property><property><name>Περιφερειακό Ιατρείο Καλαθενών</name><description/><latitude>35.4349</latitude><longitude>23.6718</longitude></property><property><name>Περιφερειακό Ιατρείο Δελιανών</name><description/><latitude>35.4496</latitude><longitude>23.7394</longitude></property><property><name>Περιφερειακό Ιατρείο Αλικιανού</name><description/><latitude>35.4541</latitude><longitude>23.9119</longitude></property><property><name>Κέντρο Υγείας Κανδάνου</name><description/><latitude>35.3291</latitude><longitude>23.744</longitude></property><property><name>Περιφερειακό Ιατρείο Παλαιόχωρας</name><description/><latitude>35.2307</latitude><longitude>23.6815</longitude></property><property><name>Περιφερειακό Ιατρείο Παλαιών Ρουμάτων</name><description/><latitude>35.4003</latitude><longitude>23.7791</longitude></property><property><name>Περιφερειακό Ιατρείο Κουντούρας</name><description/><latitude>35.2366</latitude><longitude>23.6767</longitude></property><property><name>Κέντρο Υγείας Βάμου</name><description/><latitude>35.4107</latitude><longitude>24.1988</longitude></property><property><name>Περιφερειακό Ιατρείο Φρε</name><description/><latitude>35.3827</latitude><longitude>24.1446</longitude></property><property><name>Περιφερειακό Ιατρείο Βρυσσών</name><description/><latitude>35.3776</latitude><longitude>24.2007</longitude></property><property><name>Περιφερειακό Ιατρείο Ανώπολης</name><description/><latitude>35.2186</latitude><longitude>24.0861</longitude></property><property><name>Περιφερειακό Ιατρείο Χώρας Σφακίων</name><description/><latitude>35.2010</latitude><longitude>24.1374</longitude></property><property><name>Περιφερειακό Ιατρείο Κουρνά</name><description/><latitude>35.3134</latitude><longitude>24.2966</longitude></property><property><name>Περιφερειακό Ιατρείο Επισκοπής</name><description/><latitude>35.3301</latitude><longitude>24.3358</longitude></property><property><name>Περιφερειακό Ιατρείο Αργυρούπολης</name><description/><latitude>35.2872</latitude><longitude>24.3355</longitude></property><property><name>Γενικό Νοσοκομείο Ρεθύμνου</name><description/><latitude>35.3648</latitude><longitude>24.4711</longitude></property><property><name>Κέντρο Υγείας Περάματος</name><description/><latitude>35.3714</latitude><longitude>24.6999</longitude></property><property><name>Κέντρο Υγείας Σπηλίου</name><description/><latitude>35.2195</latitude><longitude>24.5344</longitude></property><property><name>Κέντρο Υγείας Αγίας φωτεινής</name><description/><latitude>35.2544</latitude><longitude>24.6336</longitude></property><property><name>Κέντρο Υγείας Ανωγείων</name><description/><latitude>35.2921</latitude><longitude>24.881</longitude></property><property><name>Κέντρο Υγείας Μοιρών</name><description/><latitude>35.0537</latitude><longitude>24.8743</longitude></property><property><name>Πανεπιστημιακό Γενικό Νοσοκομείο Ηρακλείου</name><description/><latitude>35.2734</latitude><longitude>25.0706</longitude></property><property><name>Γενικό Νοσοκομέιο Ηρακλείου Βενιζέλειο-Πανάνειο</name><description/><latitude>35.3065</latitude><longitude>25.1577</longitude></property><property><name>Κέντρο Υγείας Καστελίου Πεδιάδος</name><description/><latitude>35.2088</latitude><longitude>25.3379</longitude></property><property><name>Κέντρο Υγείας Αγίας Βαρβάρας</name><description/><latitude>35.137</latitude><longitude>24.997</longitude></property><property><name>Κέντρο Υγείας Χάρακα</name><description/><latitude>35.0117</latitude><longitude>25.1194</longitude></property><property><name>Κέντρο Υγείας Αρκαλοχωρίου</name><description/><latitude>35.1470</latitude><longitude>25.2653</longitude></property><property><name>Γενικό Νοσοκομέιο Αγίου Νικολάου</name><description/><latitude>35.1898</latitude><longitude>25.7138</longitude></property><property><name>Γενικό Νοσοκομείο-Κέντρο υγείας Νεαπόλεως</name><description/><latitude>35.2566</latitude><longitude>25.6068</longitude></property><property><name>Κέντρο Υγείας Τζερμιάδο</name><description/><latitude>35.1990</latitude><longitude>25.4885</longitude></property><property><name>Κέντρο Υγείας Άνω Βιάννου</name><description/><latitude>35.0540</latitude><longitude>25.4102</longitude></property><property><name>Γενικό Νοσοκομείο-Κέντρο Υγείας Ιεράπετρας</name><description/><latitude>35.0106</latitude><longitude>25.7417</longitude></property><property><name>Γενικό Νοσοκομείο-Κέντρο Υγείας Σητείας</name><description/><latitude>35.2080</latitude><longitude>26.105</longitude></property><property><name>Περιφερειακό Ιατρείο Ρουστίκων</name><description/><latitude>35.2870</latitude><longitude>24.3749</longitude></property><property><name>Περιφερειακό Ιατρείο Αρμένων Ρεθύμνου</name><description/><latitude>35.2870</latitude><longitude>24.3749</longitude></property><property><name>Περιφερειακό Ιατρείο Αγκουσελιανών</name><description/><latitude>35.2396</latitude><longitude>24.4363</longitude></property><property><name>Περιφερειακό Ιατρείο Πρασσιών</name><description/><latitude>35.3202</latitude><longitude>24.5325</longitude></property><property><name>Περιφερειακό Ιατρείο Πηγής</name><description/><latitude>35.3601</latitude><longitude>24.5723</longitude></property><property><name>Περιφερειακό Ιατρείο Μέρωνα</name><description/><latitude>35.2342</latitude><longitude>24.6293</longitude></property><property><name>Περιφερειακό Ιατρείο Πανόρμου</name><description/><latitude>35.2342</latitude><longitude>24.6293</longitude></property><property><name>Περιφερειακό Ιατρείο Μαργαριτών</name><description/><latitude>35.3395</latitude><longitude>24.6865</longitude></property><property><name>Περιφερειακό Ιατρείο Φουρφουρά</name><description/><latitude>35.2118</latitude><longitude>24.7127</longitude></property><property><name>Περιφερειακό Ιατρείο Νιθαύρεως</name><description/><latitude>35.1725</latitude><longitude>24.7337</longitude></property><property><name>Περιφερειακό Ιατρείο Μελιδονίου</name><description/><latitude>35.3787</latitude><longitude>24.7380</longitude></property><property><name>Περιφερειακό Ιατρείο Χουμερίου</name><description/><latitude>35.3458</latitude><longitude>24.7314</longitude></property><property><name>Περιφερειακό Ιατρείο Γαράζου</name><description/><latitude>35.3450</latitude><longitude>24.7895</longitude></property><property><name>Περιφερειακό Ιατρείο Λιβαδίων</name><description/><latitude>35.3072</latitude><longitude>24.8083</longitude></property><property><name>Περιφερειακό Ιατρείο Ζωνιανών</name><description/><latitude>35.2955</latitude><longitude>24.8324</longitude></property><property><name>Περιφερειακό Ιατρείο Δροσιάς</name><description/><latitude>35.3445</latitude><longitude>24.8713</longitude></property><property><name>Περιφερειακό Ιατρείο Ακουμιών</name><description/><latitude>35.1650</latitude><longitude>24.5831</longitude></property><property><name>Περιφερειακό Ιατρείο Μελάμπων</name><description/><latitude>35.1273</latitude><longitude>24.6535</longitude></property><property><name>Περιφερειακό Ιατρείο Αγίας Γαλήνης</name><description/><latitude>35.0974</latitude><longitude>24.6875</longitude></property><property><name>Περιφερειακό Ιατρείο Γρηγοριάς</name><description/><latitude>35.1325</latitude><longitude>24.8116</longitude></property><property><name>Περιφερειακό Ιατρείο Τυμπακίου</name><description/><latitude>35.0722</latitude><longitude>24.7707</longitude></property><property><name>Περιφερειακό Ιατρείο Ζαρού</name><description/><latitude>35.1317</latitude><longitude>24.907</longitude></property><property><name>Περιφερειακό Ιατρείο Μαράθου</name><description/><latitude>35.3477</latitude><longitude>24.9723</longitude></property><property><name>Περιφερειακό Ιατρείο Ροδιάς</name><description/><latitude>35.3653</latitude><longitude>25.0206</longitude></property><property><name>Περιφερειακό Ιατρείο Γωνιών</name><description/><latitude>35.2964</latitude><longitude>24.9293</longitude></property><property><name>Περιφερειακό Ιατρείο Τυλίσσου</name><description/><latitude>35.2966</latitude><longitude>25.0163</longitude></property><property><name>Περιφερειακό Ιατρείο Κρουσσώνα</name><description/><latitude>35.23079</latitude><longitude>24.98340</longitude></property><property><name>Περιφερειακό Ιατρείο Δαφνών</name><description/><latitude>35.2170</latitude><longitude>25.0516</longitude></property><property><name>Περιφερειακό Ιατρείο Άνω Αρχανών</name><description/><latitude>35.2370</latitude><longitude>25.1597</longitude></property><property><name>Περιφερειακό Ιατρείο Θραψανού</name><description/><latitude>35.1881</latitude><longitude>25.2822</longitude></property><property><name>Περιφερειακό Ιατρείο Καρυδίου</name><description/><latitude>35.1338</latitude><longitude>26.1713</longitude></property><property><name>Περιφερειακό Ιατρείο Χανδρά</name><description/><latitude>35.0821</latitude><longitude>26.0998</longitude></property><property><name>Περιφερειακό Ιατρείο Ζάκρου</name><description/><latitude>35.1132</latitude><longitude>26.2195</longitude></property><property><name>Περιφερειακό Ιατρείο Ελούντας</name><description/><latitude>35.2619</latitude><longitude>25.7218</longitude></property><property><name>Περιφερειακό Ιατρείο Μαλίων</name><description/><latitude>35.2842</latitude><longitude>25.4621</longitude></property><property><name>Περιφερειακό Ιατρείο Παναγιάς</name><description/><latitude>35.1195</latitude><longitude>25.3420</longitude></property><property><name>Περιφερειακό Ιατρείο Πύργου</name><description/><latitude>35.0076</latitude><longitude>25.1546</longitude></property><property><name>Περιφερειακό Ιατρείο Αγίων Δέκα</name><description/><latitude>35.0591</latitude><longitude>24.9604</longitude></property><property><name>Περιφερειακό Ιατρείο Βασιλικών Ανωγείων</name><description/><latitude>35.0095</latitude><longitude>24.9695</longitude></property><property><name>Περιφερειακό Ιατρείο Μιαμούς</name><description/><latitude>34.9718</latitude><longitude>24.9367</longitude></property><property><name>Περιφερειακό Ιατρείο Μεσοχωρίου</name><description/><latitude>35.0156</latitude><longitude>25.2091</longitude></property><property><name>Περιφερειακό Ιατρείο Μαλλών</name><description/><latitude>35.0810</latitude><longitude>25.5858</longitude></property><property><name>Περιφερειακό Ιατρείο Άρβης</name><description/><latitude>34.9936</latitude><longitude>25.4557</longitude></property></HealthServices>